[
    {
        "id": "POA",
        "name": "Aeroporto Internacional Salgado Filho",
        "location": {
            "lat": -29.9939,
            "lng": -51.1711
        },
        "destinations": [
            "GRU",
            "GYN",
            "BEL"
        ]
    },
    {
        "id": "CXJ",
        "name": "Aeroporto Regional de Caxias do Sul",
        "location": {
            "lat": -29.1969,
            "lng": -51.1872
        },
        "destinations": [
            "SDU",
            "PLU",
            "AJU"
        ]
    },
    {
        "id": "CWB",
        "name": "Aeroporto Internacional Afonso Pena",
        "location": {
            "lat": -25.5327,
            "lng": -49.1758
        },
        "destinations": [
            "GIG",
            "PLN",
            "FOR"
        ]
    },
    {
        "id": "IGU",
        "name": "Aeroporto Internacional de Foz do Iguaçu",
        "location": {
            "lat": -25.6002,
            "lng": -54.4852
        },
        "destinations": [
            "SDU",
            "JDO",
            "RBR"
        ]
    },
    {
        "id": "FLN",
        "name": "Aeroporto Internacional Hercílio Luz",
        "location": {
            "lat": -27.6705,
            "lng": -48.5477
        },
        "destinations": [
            "GIG",
            "SSA",
            "BEL"
        ]
    },
    {
        "id": "NVT",
        "name": "Aeroporto de Navegantes",
        "location": {
            "lat": -26.8814,
            "lng": -48.6525
        },
        "destinations": [
            "CNF",
            "VCP",
            "REC"
        ]
    },
    {
        "id": "GRU",
        "name": "Aeroporto Internacional de São Paulo/Guarulhos - Governador André Franco Montoro",
        "location": {
            "lat": -23.4321,
            "lng": -46.4698
        },
        "destinations": [
            "POA",
            "CWB",
            "SDU",
            "GIG",
            "SSA",
            "REC",
            "FOR",
            "CNF"
        ]
    },
    {
        "id": "CGH",
        "name": "Aeroporto de Congonhas - São Paulo/Congonhas",
        "location": {
            "lat": -23.6261,
            "lng": -46.656
        },
        "destinations": [
            "CGR",
            "BPS",
            "PLU"
        ]
    },
    {
        "id": "VCP",
        "name": "Aeroporto Internacional de Viracopos - Campinas/Viracopos",
        "location": {
            "lat": -23.0073,
            "lng": -47.1346
        },
        "destinations": [
            "POA",
            "CWB",
            "SDU",
            "GIG",
            "SSA"
        ]
    },
    {
        "id": "SJP",
        "name": "Aeroporto de São José do Rio Preto - Aeroporto Estadual Professor Eribelto Manoel Reino",
        "location": {
            "lat": -20.8156,
            "lng": -49.4042
        },
        "destinations": [
            "BPS",
            "PLU",
            "AJU"
        ]
    },
    {
        "id": "RAO",
        "name": "Aeroporto Estadual de Ribeirão Preto - Doutor Leite Lopes",
        "location": {
            "lat": -21.1322,
            "lng": -47.7744
        },
        "destinations": [
            "CNF",
            "VCP",
            "SSA"
        ]
    },
    {
        "id": "GIG",
        "name": "Aeroporto Internacional do Rio de Janeiro/Galeão - Antônio Carlos Jobim",
        "location": {
            "lat": -22.8093,
            "lng": -43.2503
        },
        "destinations": [
            "POA",
            "CWB",
            "GRU",
            "FOR",
            "BEL",
            "RBR"
        ]
    },
    {
        "id": "SDU",
        "name": "Aeroporto Santos Dumont - Rio de Janeiro/Santos Dumont",
        "location": {
            "lat": -22.9111,
            "lng": -43.1642
        },
        "destinations": [
            "POA",
            "IGU",
            "GRU",
            "VCP",
            "FOR"
        ]
    },
    {
        "id": "BZC",
        "name": "Aeroporto de Macaé - Rio de Janeiro/Macaé",
        "location": {
            "lat": -22.3761,
            "lng": -41.8049
        },
        "destinations": [
            "IGU",
            "GYN",
            "BEL"
        ]
    },
    {
        "id": "VIX",
        "name": "Aeroporto de Vitória - Eurico de Aguiar Salles",
        "location": {
            "lat": -20.2575,
            "lng": -40.2831
        },
        "destinations": [
            "POA",
            "FLN",
            "CNF"
        ]
    },
    {
        "id": "CNF",
        "name": "Aeroporto Internacional Tancredo Neves - Confins",
        "location": {
            "lat": -19.6336,
            "lng": -43.9686
        },
        "destinations": [
            "GIG",
            "SDU",
            "GRU",
            "RAO",
            "VIX"
        ]
    },
    {
        "id": "PLU",
        "name": "Aeroporto da Pampulha - Belo Horizonte/Pampulha",
        "location": {
            "lat": -19.8513,
            "lng": -43.9485
        },
        "destinations": [
            "CXJ",
            "CGH",
            "SJP"
        ]
    },
    {
        "id": "UDI",
        "name": "Aeroporto de Uberlândia - Ten. Cel. Aviador César Bombonato",
        "location": {
            "lat": -18.8829,
            "lng": -48.2254
        },
        "destinations": [
            "CGR",
            "BPS",
            "PLU"
        ]
    },
    {
        "id": "GYN",
        "name": "Aeroporto Santa Genoveva - Goiânia/Santa Genoveva",
        "location": {
            "lat": -16.6325,
            "lng": -49.2207
        },
        "destinations": [
            "POA",
            "BZC",
            "UDI"
        ]
    },
    {
        "id": "BSB",
        "name": "Aeroporto Internacional de Brasília - Presidente Juscelino Kubitschek (no DF, mas próximo de GO)",
        "location": {
            "lat": -15.8694,
            "lng": -47.9186
        },
        "destinations": [
            "GRU",
            "CGH",
            "REC"
        ]
    },
    {
        "id": "CGR",
        "name": "Aeroporto Internacional de Campo Grande - Campo Grande/Internacional",
        "location": {
            "lat": -20.4686,
            "lng": -54.6725
        },
        "destinations": [
            "CGH",
            "UDI",
            "PLU"
        ]
    },
    {
        "id": "CGB",
        "name": "Aeroporto Internacional Marechal Rondon - Cuiabá/Marechal Rondon",
        "location": {
            "lat": -15.6529,
            "lng": -56.1164
        },
        "destinations": [
            "CGH",
            "REC"
        ]
    },
    {
        "id": "SSA",
        "name": "Aeroporto Internacional de Salvador - Dep. Luís Eduardo Magalhães",
        "location": {
            "lat": -12.9116,
            "lng": -38.3312
        },
        "destinations": [
            "GRU",
            "FLN",
            "RAO",
            "GIG",
            "REC"
        ]
    },
    {
        "id": "BPS",
        "name": "Aeroporto de Porto Seguro - Porto Seguro",
        "location": {
            "lat": -16.4386,
            "lng": -39.0808
        },
        "destinations": [
            "CGH",
            "SJP",
            "BZC"
        ]
    },
    {
        "id": "AJU",
        "name": "Aeroporto de Aracaju - Santa Maria",
        "location": {
            "lat": -10.9851,
            "lng": -37.0724
        },
        "destinations": [
            "CXJ",
            "SJP",
            "RBR"
        ]
    },
    {
        "id": "MCZ",
        "name": "Aeroporto Internacional Zumbi dos Palmares - Maceió/Zumbi dos Palmares",
        "location": {
            "lat": -9.5107,
            "lng": -35.7917
        },
        "destinations": [
            "SDU",
            "REC"
        ]
    },
    {
        "id": "JPA",
        "name": "Aeroporto Internacional de João Pessoa - Presidente Castro Pinto",
        "location": {
            "lat": -7.1458,
            "lng": -34.9497
        },
        "destinations": [
            "SDU",
            "RBR"
        ]
    },
    {
        "id": "REC",
        "name": "Aeroporto Internacional do Recife/Guararapes - Gilberto Freyre",
        "location": {
            "lat": -8.1325,
            "lng": -34.9238
        },
        "destinations": [
            "SDU",
            "GRU",
            "RAO",
            "GIG",
            "MCZ"
        ]
    },
    {
        "id": "PLN",
        "name": "Aeroporto de Petrolina - Senador Nilo Coelho",
        "location": {
            "lat": -9.3873,
            "lng": -40.4904
        },
        "destinations": [
            "FLN",
            "CNF",
            "RAO"
        ]
    },
    {
        "id": "NAT",
        "name": "Aeroporto Internacional de Natal - Aluízio Alves",
        "location": {
            "lat": -5.7671,
            "lng": -35.3628
        },
        "destinations": [
            "POA",
            "CNF",
            "VCP"
        ]
    },
    {
        "id": "SLZ",
        "name": "Aeroporto Internacional Marechal Cunha Machado - São Luís/Marechal Cunha Machado",
        "location": {
            "lat": -2.5854,
            "lng": -44.2351
        },
        "destinations": [
            "SDU",
            "GIG"
        ]
    },
    {
        "id": "FOR",
        "name": "Aeroporto Internacional de Fortaleza - Pinto Martins",
        "location": {
            "lat": -3.7761,
            "lng": -38.5323
        },
        "destinations": [
            "POA",
            "CWB",
            "GIG",
            "SSA",
            "RBR"
        ]
    },
    {
        "id": "JDO",
        "name": "Aeroporto de Juazeiro do Norte - Orlando Bezerra de Menezes",
        "location": {
            "lat": -7.2182,
            "lng": -39.2708
        },
        "destinations": [
            "CXJ",
            "AJU"
        ]
    },
    {
        "id": "TJL",
        "name": "Aeroporto de Teresina - Senador Petrônio Portella",
        "location": {
            "lat": -5.0633,
            "lng": -42.8219
        },
        "destinations": [
            "CXJ"
        ]
    },
    {
        "id": "MAO",
        "name": "Aeroporto Internacional Eduardo Gomes - Manaus/Eduardo Gomes",
        "location": {
            "lat": -3.0418,
            "lng": -60.0497
        },
        "destinations": [
            "POA",
            "BZC"
        ]
    },
    {
        "id": "BEL",
        "name": "Aeroporto Internacional de Belém - Val de Cans/Júlio Cezar Ribeiro",
        "location": {
            "lat": -1.437778,
            "lng": -48.468889
        },
        "destinations": [
            "POA",
            "FLN",
            "GIG"
        ]
    },
    {
        "id": "PVH",
        "name": "Aeroporto Internacional Governador Jorge Teixeira - Porto Velho/Jorge Teixeira",
        "location": {
            "lat": -8.7152,
            "lng": -63.902
        },
        "destinations": [
            "CXJ"
        ]
    },
    {
        "id": "BOA",
        "name": "Aeroporto Internacional Atlas Brasil Cantanhede - Boa Vista/Atlas Brasil Cantanhede",
        "location": {
            "lat": 2.8541,
            "lng": -60.6912
        },
        "destinations": [
            "SDU"
        ]
    },
    {
        "id": "PMW",
        "name": "Aeroporto de Palmas - Brigadeiro Lysias Rodrigues",
        "location": {
            "lat": -10.2933,
            "lng": -48.3563
        },
        "destinations": [
            "CXJ"
        ]
    },
    {
        "id": "RBR",
        "name": "Aeroporto Internacional de Rio Branco - Plácido de Castro",
        "location": {
            "lat": -9.8691,
            "lng": -67.8935
        },
        "destinations": [
            "IGU",
            "JPA"
        ]
    },
    {
        "id": "MCP",
        "name": "Aeroporto Internacional de Macapá - Alberto Alcolumbre",
        "location": {
            "lat": 0.050833,
            "lng": -51.070278
        },
        "destinations": [
            "IGU",
            "AJU"
        ]
    }
]